{
  "type": "FeatureCollection",
  "features": [
    {
      "type": "Feature",
      "properties": {
        "name": "Sandton City South Africa Shopping Mall",
        "description": "Shopping mall",
        "address": "Unit U61a, Sandton City\n83 Rivonia Rd, Sandhurst\nSandton, 2196\nSouth Africa",
        "hours": "Mon-Sat: 9:00 am – 8:00 pm\nSun: 9:00 am – 6:00 pm",
        "phone_number": "27 11 217 6000",
        "website": "sandtoncity.com"
      },
      "geometry": {
        "type": "Point",
        "coordinates": [
          28.052632,
          -26.108783
        ]
      }
    },
    {
      "type": "Feature",
      "properties": {
        "name": "Saverite Supermarket",
        "description": "Supermarket",
        "address": "Corner West and Brits\nPretoria\nSouth Africa",
        "hours": "",
        "phone_number": "27 12 546 4131",
        "website": "saverite.co.za"
      },
      "geometry": {
        "type": "Point",
        "coordinates": [
          28.166543,
          -25.679605
        ]
      }
    },
    {
      "type": "Feature",
      "properties": {
        "name": "Thunder Solutions Limited",
        "description": "Electronics store",
        "address": "4th Ave\nAccra\nGhana",
        "hours": "Mon-Sun: 8:00 am – 8:00 pm",
        "phone_number": "233 20 829 8299"
      },
      "geometry": {
        "type": "Point",
        "coordinates": [
          -0.081214,
          5.641161
        ]
      }
    }
  ]
}
